[
	{"name":"Rion Vets - Γαλάνης Μ. & Τουρλούπη Μ.",
	"address":"Παλαιά Εθνική Οδός Πατρών - Αθηνών 1, Ρίο, 26504, ΑΧΑΪΑΣ",
	"telephone":"2610995432",
	"lat":38.2967300,
	"lng":21.7939450,
	"vetID":1},

	{"name":"Μπουρδάκου Ελένη",
	"address":"Κανακάρη 212, Πάτρα, 26222, ΑΧΑΪΑΣ",
	"telephone":"2610340151",
	"lat":38.2422112,
	"lng":21.7317241,
	"vetID":2},

	{"name":"Βανταράκης Αλέξανδρος",
	"address":"Αγίας Σοφίας 17, Πάτρα, 26441, ΑΧΑΪΑΣ",
	"telephone":"2610453050",
	"lat":38.2572746,
	"lng":21.7408209,
	"vetID":3},

	{"name":"Παπαδημητρίου Κωνσταντίνος Α.",
	"address":"Μαιζώνος 197, Πάτρα, 26222, ΑΧΑΪΑΣ",
	"telephone":"2610346051",
	"lat":38.2431892,
	"lng":21.7305353,
	"vetID":4},

	{"name":"Γεωργοπούλου Βασιλική Βάσια Ν.",
	"address":"Πατρών Κλάους 178, Πάτρα, 26334, ΑΧΑΪΑΣ",
	"telephone":"2610643158",
	"lat":38.2154240,
	"lng":21.7544120,
	"vetID":5},

	{"name":"Νταβλούρου Βασιλική Α.",
	"address":"Μενούνου Λοχαγού 8, Πάτρα, 26335, ΑΧΑΪΑΣ",
	"telephone":"2610624880",
	"lat":38.2368882,
	"lng":21.7496239,
	"vetID":6},

	{"name":"Τραχήλη Αθηνά Ε.",
	"address":"Υψηλάντη Αλέξανδρου 139, Πάτρα, 26225, ΑΧΑΪΑΣ",
	"telephone":"2610623895",
	"lat":38.2458092,
	"lng":21.7385497,
	"vetID":7},

	{"name":"Μπαλάση Παναγιώτα Η.",
	"address":"Ευβοίας 161, Πάτρα - Ζαρουχλέικα, 26332, ΑΧΑΪΑΣ",
	"telephone":"2610336877",
	"lat":38.2199736,
	"lng":21.7374446,
	"vetID":8},

	{"name":"Καραπατάκης Βασίλειος Α.",
	"address":"Πλατεία Ομονοίας 40-42, Πάτρα, 26224, ΑΧΑΪΑΣ",
	"telephone":"2610221664",
	"lat":38.2414102,
	"lng":21.7388870,
	"vetID":9},

	{"name":"Γιωτόπουλος Μιχαήλ Γ.",
	"address":"Παλαιών Πατρών Γερμανού 145, Πάτρα, 26331, ΑΧΑΪΑΣ",
	"telephone":"2610270672",
	"lat":38.2406710,
	"lng":21.7436600,
	"vetID":10},

	{"name":"Κτηνιατρικό Εργαστήριο Πατρών",
	"address":"Νοταρά 15, Πάτρα, 26442, ΑΧΑΪΑΣ",
	"telephone":"2610427383",
	"lat":38.2626935,
	"lng":21.7436774,
	"vetID":11},

	{"name":"Νάκου Γκόλφω Σ.",
	"address":"Ευρυπύλου 32, Πάτρα, 26331, ΑΧΑΪΑΣ",
	"telephone":"2610240999",
	"lat":38.2410730,
	"lng":21.7470230,
	"vetID":12},

	{"name":"Ζαπάντες Ιωάννης Δ.",
	"address":"Ηρώων Πολυτεχνείου 66, Πάτρα, 26442, ΑΧΑΪΑΣ",
	"telephone":"2610438058",
	"lat":38.2635723,
	"lng":21.7393564,
	"vetID":13},

	{"name":"Καραντώνη-Πολίτη Γαρυφαλλιά",
	"address":"Καραϊσκάκη 65 & Κολοκοτρώνη, Πάτρα, 26225, ΑΧΑΪΑΣ",
	"telephone":"2610621352",
	"lat":38.2470590,
	"lng":21.7392130,
	"vetID":14},

	{"name":"Μπαλάσης Οδυσσέας Γ.",
	"address":"Νοταρά 6, Πάτρα, 26441, ΑΧΑΪΑΣ",
	"telephone":"2610438870",
	"lat":38.262650,
	"lng":21.743651,
	"vetID":15},

	{"name":"Παπαχρήστος Ευάγγελος Θ.",
	"address":"Κορίνθου 151, Πάτρα, 26223, ΑΧΑΪΑΣ",
	"telephone":"2610221612",
	"lat":38.250768,
	"lng":21.741584,
	"vetID":16}
]